{"business_id": "uZdGSJdWbQpLDsuV9mP79g", "full_address": "8668 E Shea Blvd\nScottsdale, AZ 85260", "open": true, "categories": ["Food", "Burgers", "Fast Food", "Ice Cream & Frozen Yogurt", "Restaurants"], "city": "Scottsdale", "review_count": 11, "name": "Culver's", "neighborhoods": [], "longitude": -111.893676720267, "state": "AZ", "stars": 3.0, "latitude": 33.582709118146099, "type": "business"}
{"business_id": "i--afvRsP1TSJyQMZKgJiw", "full_address": "534 W McDowell Rd\nPhoenix, AZ 85003", "open": true, "categories": ["Sandwiches", "Restaurants"], "city": "Phoenix", "review_count": 8, "name": "Potbelly Sandwich Shop", "neighborhoods": [], "longitude": -112.0814642, "state": "AZ", "stars": 3.5, "latitude": 33.466040700000001, "type": "business"}
{"business_id": "wG9Aov3y0qRIicugJNAc0w", "full_address": "32531 N Scottsdale Rd\nSte 101\nScottsdale, AZ 85266", "open": true, "categories": ["Breakfast & Brunch", "American (New)", "Restaurants"], "city": "Scottsdale", "review_count": 7, "name": "Summit Diner", "neighborhoods": [], "longitude": -111.92391944763099, "state": "AZ", "stars": 2.5, "latitude": 33.780657772988697, "type": "business"}
{"business_id": "k_PKdh26zn3MHUYVTkozwQ", "full_address": "8418 E Shea Blvd\nSte 101B\nScottsdale, AZ 85260", "open": true, "categories": ["Beauty & Spas", "Health & Medical", "Medical Spas"], "city": "Scottsdale", "review_count": 4, "name": "Skin Savvy Aesthetics", "neighborhoods": [], "longitude": -111.898628, "state": "AZ", "stars": 5.0, "latitude": 33.582600900000003, "type": "business"}
{"business_id": "at82G4ZvMDtEsksDVk28tg", "full_address": "3141 E Lincoln Dr\nPhoenix, AZ 85016", "open": true, "categories": ["Hair Salons", "Beauty & Spas"], "city": "Phoenix", "review_count": 3, "name": "Blow Dry Bar By Kimberly", "neighborhoods": [], "longitude": -112.013786315918, "state": "AZ", "stars": 3.5, "latitude": 33.530410766601598, "type": "business"}
{"business_id": "gpAAY-SdEFyKpk8NSSHsgQ", "full_address": "3617 E Southern Ave\nSte 4\nMesa, AZ 85206", "open": true, "categories": ["Greek", "Mediterranean", "Restaurants"], "city": "Mesa", "review_count": 5, "name": "Gyro House", "neighborhoods": [], "longitude": -111.7531446, "state": "AZ", "stars": 2.5, "latitude": 33.393688099999999, "type": "business"}
{"business_id": "ICcXEGER1qgo1NKR1377-w", "full_address": "Tempe, AZ 85282", "open": true, "categories": ["Auto Repair", "Automotive"], "city": "Tempe", "review_count": 4, "name": "Moving on Auto Repair and Electric", "neighborhoods": [], "longitude": -111.9343636, "state": "AZ", "stars": 5.0, "latitude": 33.389757600000003, "type": "business"}
{"business_id": "-TNwWa_OGPmZoBFl25zdYA", "full_address": "17650 W Elliot Rd\nSte A-155\nGoodyear, AZ 85338", "open": true, "categories": ["Breakfast & Brunch", "Restaurants"], "city": "Goodyear", "review_count": 4, "name": "Oasis Bagels", "neighborhoods": [], "longitude": -112.4296587, "state": "AZ", "stars": 5.0, "latitude": 33.3574524, "type": "business"}
{"business_id": "TQNDCD50mkXwySB_qXmrXA", "full_address": "1050 S Country Club Dr\nMesa, AZ 85210", "open": true, "categories": ["Steakhouses", "Seafood", "American (Traditional)", "Restaurants"], "city": "Mesa", "review_count": 6, "name": "Sizzler", "neighborhoods": [], "longitude": -111.8406513, "state": "AZ", "stars": 3.5, "latitude": 33.395974000000002, "type": "business"}
{"business_id": "hF6KrTKdQBk0wDIkZmhFkA", "full_address": "820 N 54th St\nChandler, AZ 85226", "open": true, "categories": ["Mexican", "Restaurants"], "city": "Chandler", "review_count": 4, "name": "Federico's", "neighborhoods": [], "longitude": -111.968917, "state": "AZ", "stars": 3.0, "latitude": 33.316239000000003, "type": "business"}
{"business_id": "8uOiUajj7BO1e_8sgVneGw", "full_address": "7365 N Via Paseo Del Sur\nScottsdale, AZ 85258", "open": true, "categories": ["Food", "Juice Bars & Smoothies"], "city": "Scottsdale", "review_count": 3, "name": "Endurance Cafe", "neighborhoods": [], "longitude": -111.9041764, "state": "AZ", "stars": 4.5, "latitude": 33.544373299999997, "type": "business"}
{"business_id": "VDzgxHjMJj-1nMfJMtcSPQ", "full_address": "211 E Warner Rd\nGilbert, AZ 85296", "open": true, "categories": ["Breakfast & Brunch", "Restaurants"], "city": "Gilbert", "review_count": 12, "name": "Over Easy", "neighborhoods": [], "longitude": -111.785202, "state": "AZ", "stars": 4.0, "latitude": 33.335064000000003, "type": "business"}
{"business_id": "WdA5_NFzrys9EdEg9czvFw", "full_address": "4525 E Thomas Rd\nPhoenix, AZ 85018", "open": true, "categories": ["Department Stores", "Fashion", "Shopping"], "city": "Phoenix", "review_count": 3, "name": "Burlington Coat Factory", "neighborhoods": [], "longitude": -111.9844444, "state": "AZ", "stars": 2.5, "latitude": 33.480007800000003, "type": "business"}
{"business_id": "Q5ZD7ZAs96NAVblFDV476g", "full_address": "1840 S Val Vista Dr\nMesa, AZ 85204", "open": true, "categories": ["American (New)", "Mexican", "Restaurants"], "city": "Mesa", "review_count": 34, "name": "TQLA", "neighborhoods": [], "longitude": -111.754566, "state": "AZ", "stars": 3.5, "latitude": 33.381723000000001, "type": "business"}
{"business_id": "a_kNiYap1VcSVS7oAIgZvg", "full_address": "10215 N 28Th Dr - Metro Ctr\nPhoenix, AZ 85051", "open": true, "categories": ["Shopping", "Mobile Phones"], "city": "Phoenix", "review_count": 3, "name": "Sprint", "neighborhoods": [], "longitude": -112.1218054, "state": "AZ", "stars": 1.5, "latitude": 33.580442499999997, "type": "business"}
{"business_id": "Uwin4a2xiUr3bJEviCmThg", "full_address": "W Boston St & S San Marcos Pl\nChandler, AZ 85225", "open": true, "categories": ["Local Flavor"], "city": "Chandler", "review_count": 3, "name": "Taste of Chandler", "neighborhoods": [], "longitude": -111.8420579, "state": "AZ", "stars": 5.0, "latitude": 33.302303199999997, "type": "business"}
{"business_id": "lTk4l6YgxNXNaMCD9mcD6Q", "full_address": "4905 East Ray Rd\nSte 104\nPhoenix, AZ 85044", "open": true, "categories": ["Pizza", "Restaurants"], "city": "Phoenix", "review_count": 3, "name": "Vincent's Famous Pizza & Restaurant", "neighborhoods": [], "longitude": -111.97787475585901, "state": "AZ", "stars": 4.5, "latitude": 33.319377899169901, "type": "business"}
{"business_id": "xXb_uHTQhT9BwuViA6YcqQ", "full_address": "8550 N 91st Ave,\nSte 94\nPeoria, AZ 85345", "open": true, "categories": ["Active Life", "Gyms", "Fitness & Instruction"], "city": "Peoria", "review_count": 6, "name": "Crossfit West Valley", "neighborhoods": [], "longitude": -112.2559789, "state": "AZ", "stars": 5.0, "latitude": 33.557212100000001, "type": "business"}
{"business_id": "kZxE9Td05pGFqvsqzYxeSw", "full_address": "4030 E Bell Rd\nSte 101\nPhoenix, AZ 85032", "open": true, "categories": ["Indian", "Restaurants"], "city": "Phoenix", "review_count": 3, "name": "Tadka Sizzles", "neighborhoods": [], "longitude": -111.994984, "state": "AZ", "stars": 3.5, "latitude": 33.641795000000002, "type": "business"}
{"business_id": "VNLiEBJyt7UfB1mI9puITg", "full_address": "15640 N Pima Rd\nScottsdale, AZ 85260", "open": true, "categories": ["Bakeries", "Food"], "city": "Scottsdale", "review_count": 5, "name": "Wildflower Bread Company", "neighborhoods": [], "longitude": -111.89100569999999, "state": "AZ", "stars": 4.0, "latitude": 33.6277306, "type": "business"}
{"business_id": "5cA0fBYsNagnDot1AATykA", "full_address": "21803 S Ellsworth Rd\nSte 101\nQueen Creek, AZ 85142", "open": true, "categories": ["Seafood", "Restaurants"], "city": "Queen Creek", "review_count": 4, "name": "Hanzys Seafood", "neighborhoods": [], "longitude": -111.6341365, "state": "AZ", "stars": 4.5, "latitude": 33.250409699999999, "type": "business"}
{"business_id": "LYCaveWFti6kUHpMzYKLjA", "full_address": "1739 W Glendale Ave\nPhoenix, AZ 85021", "open": true, "categories": ["Chinese", "Restaurants"], "city": "Phoenix", "review_count": 7, "name": "Big Heng", "neighborhoods": [], "longitude": -112.096976, "state": "AZ", "stars": 4.5, "latitude": 33.538144000000003, "type": "business"}
{"business_id": "acZ2GUh3R_wcu4r3Z5tSCQ", "full_address": "1 E Washington St\nSte 170\nPhoenix, AZ 85004", "open": true, "categories": ["Sandwiches", "Restaurants"], "city": "Phoenix", "review_count": 5, "name": "Potbelly Sandwich Shop", "neighborhoods": [], "longitude": -112.07268935150501, "state": "AZ", "stars": 4.0, "latitude": 33.447874033194097, "type": "business"}
{"business_id": "dKtbrGgg5fbl8MibhilP2A", "full_address": "Phoenix Sky Harbor International Airport\n3400 E Sky Harbor Blvd\nPhoenix, AZ 85034", "open": true, "categories": ["American (Traditional)", "Pizza", "Restaurants"], "city": "Phoenix", "review_count": 22, "name": "La Grande Orange", "neighborhoods": [], "longitude": -111.99952125549299, "state": "AZ", "stars": 4.5, "latitude": 33.434064731065398, "type": "business"}
{"business_id": "X5j76x6F5RbbeqD6J51iqQ", "full_address": "3240 E Camelback Rd\nPhoenix, AZ 85018", "open": true, "categories": ["Active Life", "Yoga", "Fitness & Instruction"], "city": "Phoenix", "review_count": 7, "name": "CoreBalance Studio", "neighborhoods": [], "longitude": -112.011028, "state": "AZ", "stars": 5.0, "latitude": 33.510393999999998, "type": "business"}
{"business_id": "1It6q3SJ27pwWWCr7kih6w", "full_address": "5410 N Scottsdale Rd\nSte D 500\nScottsdale, AZ 85253", "open": true, "categories": ["Beauty & Spas", "Health & Medical", "Laser Hair Removal", "Hair Removal", "Medical Spas"], "city": "Scottsdale", "review_count": 4, "name": "Reflections Laser Center & MedSpa", "neighborhoods": [], "longitude": -111.9262635, "state": "AZ", "stars": 5.0, "latitude": 33.515348899999999, "type": "business"}
{"business_id": "i9foqryAntKSN80EXaBdCQ", "full_address": "4555 E Cactus Rd\nPhoenix, AZ 85032", "open": true, "categories": ["Shopping", "Home Decor", "Home & Garden", "Furniture Stores"], "city": "Phoenix", "review_count": 3, "name": "HomeGoods", "neighborhoods": [], "longitude": -111.98259651660899, "state": "AZ", "stars": 4.5, "latitude": 33.598803315959401, "type": "business"}
{"business_id": "qt20M-PKakQxLrjnv_7Z-w", "full_address": "34640 N  Valley Pkwy\nSte 125\nPhoenix, AZ 85086", "open": true, "categories": ["Pet Groomers", "Pet Services", "Pet Stores", "Pets"], "city": "Phoenix", "review_count": 3, "name": "Cookies-N-Clean", "neighborhoods": [], "longitude": -112.129379, "state": "AZ", "stars": 5.0, "latitude": 33.798830500000001, "type": "business"}
{"business_id": "RxYntP8Gsu9hH6gtGjQGVw", "full_address": "7049 E McDowell Rd\nScottsdale, AZ 85257", "open": true, "categories": ["Food", "Seafood", "Seafood Markets", "Specialty Food", "Barbeque", "Restaurants"], "city": "Scottsdale", "review_count": 11, "name": "J&M Fish Market", "neighborhoods": [], "longitude": -111.928442716598, "state": "AZ", "stars": 3.5, "latitude": 33.465270784517799, "type": "business"}
{"business_id": "Guw0j717cVbVLYfn3sK1RQ", "full_address": "3041 N 16th St\nPhoenix, AZ 85016", "open": true, "categories": ["Automotive", "Auto Parts & Supplies"], "city": "Phoenix", "review_count": 3, "name": "O'Reilly Auto Parts", "neighborhoods": [], "longitude": -112.047253, "state": "AZ", "stars": 4.5, "latitude": 33.483359999999998, "type": "business"}
{"business_id": "_HGheM2jzKEZFqkT4kyViQ", "full_address": "4225 Sky Harbor Blvd\nPhoenix, AZ 85034", "open": true, "categories": ["Food", "Coffee & Tea"], "city": "Phoenix", "review_count": 9, "name": "Cartel Coffee Lab", "neighborhoods": [], "longitude": -111.99433922767599, "state": "AZ", "stars": 4.5, "latitude": 33.434190079035503, "type": "business"}
{"business_id": "3E5XcajSQBNW4I6f_EkGHg", "full_address": "10260 North 90th St\nScottsdale, AZ 85258", "open": true, "categories": ["Oral Surgeons", "Health & Medical", "Dentists", "Orthodontists", "General Dentistry"], "city": "Scottsdale", "review_count": 3, "name": "Scottsdale Modern Dentistry and Orthodontics", "neighborhoods": [], "longitude": -111.886595, "state": "AZ", "stars": 5.0, "latitude": 33.579414800000002, "type": "business"}
{"business_id": "b8olDL4gMsQXBT1NqBkhWg", "full_address": "1984 W Main St\nMesa, AZ 85202", "open": true, "categories": ["Food", "Donuts"], "city": "Mesa", "review_count": 6, "name": "Krispy Kreme Donuts", "neighborhoods": [], "longitude": -111.87454, "state": "AZ", "stars": 3.0, "latitude": 33.414984699999998, "type": "business"}
{"business_id": "E5CDCVDHpNzTPh5F3Pbppg", "full_address": "1290 S Normal Ave\nTempe, AZ 85281", "open": true, "categories": ["Food", "Asian Fusion", "Food Trucks", "Restaurants"], "city": "Tempe", "review_count": 6, "name": "F\u00e0n Boy at ASU", "neighborhoods": [], "longitude": -111.9327744, "state": "AZ", "stars": 4.5, "latitude": 33.4146511, "type": "business"}
{"business_id": "FGKfpIvWRFrUyGS1xMPOiQ", "full_address": "7337 E Shea Blvd\nSte 15\nScottsdale, AZ 85260", "open": true, "categories": ["Skin Care", "Beauty & Spas"], "city": "Scottsdale", "review_count": 3, "name": "The Facial Studio", "neighborhoods": [], "longitude": -111.923672, "state": "AZ", "stars": 5.0, "latitude": 33.581786999999998, "type": "business"}
{"business_id": "wBM9MzNd6s-KDeRcRULJ5g", "full_address": "6339 E Greenway Rd\nScottsdale, AZ 85254", "open": true, "categories": ["Pizza", "Restaurants"], "city": "Scottsdale", "review_count": 3, "name": "Papa Murphys", "neighborhoods": [], "longitude": -111.94352499999999, "state": "AZ", "stars": 4.0, "latitude": 33.624662000000001, "type": "business"}
{"business_id": "DnA5Ec7DOvaaCxmnLx2iYw", "full_address": "3923 E Thomas Rd\nSte B2\nPhoenix, AZ 85018", "open": true, "categories": ["Cajun/Creole", "Chicken Wings", "Restaurants"], "city": "Phoenix", "review_count": 6, "name": "Louisiana Fried Chicken", "neighborhoods": [], "longitude": -111.997771, "state": "AZ", "stars": 4.0, "latitude": 33.479889, "type": "business"}
{"business_id": "FLRJOfsVjRcUL01j60V-ZA", "full_address": "2073 E Camelback Rd\nPhoenix, AZ 85016", "open": true, "categories": ["Women's Clothing", "Plus Size Fashion", "Fashion", "Shopping"], "city": "Phoenix", "review_count": 9, "name": "Nordstrom Rack", "neighborhoods": [], "longitude": -112.0372737, "state": "AZ", "stars": 4.5, "latitude": 33.5092809, "type": "business"}
{"business_id": "6HzJOvPwMLLuGI4kYf4iZQ", "full_address": "10575 W. Indian School Rd. E-107\nAvondale, AZ 85392", "open": true, "categories": ["Japanese", "Restaurants"], "city": "Avondale", "review_count": 4, "name": "Tep Grill To Go", "neighborhoods": [], "longitude": -112.286067, "state": "AZ", "stars": 4.5, "latitude": 33.492984999999997, "type": "business"}
{"business_id": "2nGQW91SE-2o5dX32kQ-tQ", "full_address": "708 E Virginia Ave\nPhoenix, AZ 85007", "open": true, "categories": ["Tobacco Shops", "Shopping"], "city": "Phoenix", "review_count": 5, "name": "Butt Out", "neighborhoods": [], "longitude": -112.064672, "state": "AZ", "stars": 5.0, "latitude": 33.476841, "type": "business"}
{"business_id": "Rvd5fGybj83Brgm-S-QT1Q", "full_address": "2131 E Camelback Rd\nSte 111\nPhoenix, AZ 85016", "open": true, "categories": ["Burgers", "Fast Food", "Restaurants"], "city": "Phoenix", "review_count": 5, "name": "Five Guys Burgers & Fries", "neighborhoods": [], "longitude": -112.0359467, "state": "AZ", "stars": 3.0, "latitude": 33.509291699999999, "type": "business"}
{"business_id": "PG0itWTUdxdy39P9CTgAzg", "full_address": "7205 S Power Rd\nQueen Creek, AZ 85297", "open": true, "categories": ["Pubs", "Bars", "Nightlife"], "city": "Queen Creek", "review_count": 6, "name": "TC's Pub & Grub", "neighborhoods": [], "longitude": -111.6855127, "state": "AZ", "stars": 3.5, "latitude": 33.285140300000002, "type": "business"}
{"business_id": "i6FVePCt5MHmXswAL2c2sw", "full_address": "2837 N Power Rd\nSte 102\nMesa, AZ 85212", "open": true, "categories": ["Burgers", "American (Traditional)", "Hot Dogs", "Restaurants"], "city": "Mesa", "review_count": 15, "name": "Smashburger", "neighborhoods": [], "longitude": -111.68376979999999, "state": "AZ", "stars": 4.5, "latitude": 33.467890300000001, "type": "business"}
{"business_id": "swuZvAsztWfd1W4aZIwG1A", "full_address": "16000 Maricopa Rd\nMaricopa, AZ 85138", "open": true, "categories": ["Arts & Entertainment", "American (New)", "Bars", "Nightlife", "Lounges", "Cinema", "Restaurants"], "city": "Maricopa", "review_count": 9, "name": "Ultra Star Multi-tainment Center", "neighborhoods": [], "longitude": -112.048614084086, "state": "AZ", "stars": 4.0, "latitude": 33.024308670398703, "type": "business"}
{"business_id": "PqwLZoOF_qJf6NoN9OyFbg", "full_address": "4413 N Saddlebag Trl\nSte 4\nScottsdale, AZ 85251", "open": true, "categories": ["Tanning", "Beauty & Spas"], "city": "Scottsdale", "review_count": 5, "name": "Arizona Airbrush Studio", "neighborhoods": [], "longitude": -111.921935, "state": "AZ", "stars": 5.0, "latitude": 33.500982999999998, "type": "business"}
{"business_id": "XGl6nL5I21Lm8XmkfnNvsw", "full_address": "8752 E Shea Blvd\nSte C11\nScottsdale, AZ 85260", "open": true, "categories": ["Indian", "Buffets", "Restaurants"], "city": "Scottsdale", "review_count": 11, "name": "Karaikudi Palace", "neighborhoods": [], "longitude": -111.89239499999999, "state": "AZ", "stars": 4.0, "latitude": 33.582485900000002, "type": "business"}
{"business_id": "X25CYzSxzCgk2nO3DkrgdA", "full_address": "225 E Adams St\nPhoenix, AZ 85004", "open": true, "categories": ["Local Flavor"], "city": "Phoenix", "review_count": 10, "name": "Yelp Event at Ballet AZ's Nutcracker", "neighborhoods": [], "longitude": -112.0707235, "state": "AZ", "stars": 5.0, "latitude": 33.448827299999998, "type": "business"}
{"business_id": "Gl4TouO2_CCz2nFPS9fGlA", "full_address": "1504 NW Grand Ave\nPhoenix, AZ 85007", "open": true, "categories": ["Arts & Entertainment", "Musical Instruments & Teachers", "Shopping"], "city": "Phoenix", "review_count": 4, "name": "Mods & Rockers", "neighborhoods": [], "longitude": -112.09161140000001, "state": "AZ", "stars": 2.0, "latitude": 33.459145200000002, "type": "business"}
{"business_id": "_4PneR-GyiymyNlwQ37V-w", "full_address": "2325 E Baseline Rd\nPhoenix, AZ 85042", "open": true, "categories": ["Active Life", "Gyms", "Trainers", "Fitness & Instruction"], "city": "Phoenix", "review_count": 3, "name": "LA Fitness", "neighborhoods": [], "longitude": -112.03317819999999, "state": "AZ", "stars": 4.0, "latitude": 33.377663400000003, "type": "business"}
{"business_id": "4C-lKI0L6bloWChrqXM5Jg", "full_address": "4014 Goldwater Blvd\nScottsdale, AZ 85251", "open": true, "categories": ["Food", "Juice Bars & Smoothies"], "city": "Scottsdale", "review_count": 10, "name": "Kaleidoscope Juice", "neighborhoods": [], "longitude": -111.93063480000001, "state": "AZ", "stars": 5.0, "latitude": 33.4936893, "type": "business"}
{"business_id": "cEuHh18quld2FuOCGltO3Q", "full_address": "4821 N Scottsdale Rd\nSte 105\nScottsdale, AZ 85251", "open": true, "categories": ["Eyelash Service", "Hair Removal", "Beauty & Spas"], "city": "Scottsdale", "review_count": 3, "name": "Olga Brow Studio", "neighborhoods": [], "longitude": -111.92574159999999, "state": "AZ", "stars": 5.0, "latitude": 33.506581300000001, "type": "business"}
{"business_id": "BRaQrgYVR17bd_zr-wNSlQ", "full_address": "6929 E Hampton Avenue\nMesa, AZ 85209", "open": true, "categories": ["Restaurants"], "city": "Mesa", "review_count": 3, "name": "Wendy's Old Fashioned Hamburgers", "neighborhoods": [], "longitude": -111.682305, "state": "AZ", "stars": 4.0, "latitude": 33.390045999999998, "type": "business"}
{"business_id": "4M9s2RT2KlpfzF4kbIMQsA", "full_address": "930 E Warner Rd\nSte 3\nChandler, AZ 85225", "open": true, "categories": ["Hair Salons", "Hair Removal", "Hair Stylists", "Beauty & Spas"], "city": "Chandler", "review_count": 8, "name": "Shear Organic Hair Studio", "neighborhoods": [], "longitude": -111.826674, "state": "AZ", "stars": 5.0, "latitude": 33.335611800000002, "type": "business"}
{"business_id": "I4vC08JXAFjXszUZAszh2Q", "full_address": "7322 W Bell Rd\nGlendale, AZ 85308", "open": true, "categories": ["American (New)", "Restaurants"], "city": "Glendale", "review_count": 5, "name": "Native New Yorker", "neighborhoods": [], "longitude": -112.21633780000001, "state": "AZ", "stars": 3.0, "latitude": 33.638327199999999, "type": "business"}
{"business_id": "GDpGkoFIkRp6b5HmdcMu1Q", "full_address": "20910 N Tatum Blvd\nSte 160\nPhoenix, AZ 85050", "open": true, "categories": ["Food", "Ice Cream & Frozen Yogurt"], "city": "Phoenix", "review_count": 5, "name": "Yogurt Plus", "neighborhoods": [], "longitude": -111.98079702534901, "state": "AZ", "stars": 5.0, "latitude": 33.674508469929897, "type": "business"}
{"business_id": "qbEJeRvytnBo5BGG1R5kGg", "full_address": "1928 E Highland Ave\nSte F-107\nPhoenix, AZ 85016", "open": true, "categories": ["Nightlife", "Breakfast & Brunch", "American (New)", "Bars", "Restaurants"], "city": "Phoenix", "review_count": 23, "name": "Daily Dose MidTown", "neighborhoods": [], "longitude": -112.040011882782, "state": "AZ", "stars": 4.0, "latitude": 33.5057744492943, "type": "business"}
{"business_id": "1epH2hHsZ2HoSU8ugWWSOw", "full_address": "933 E University Dr\nSte 112\nTempe, AZ 85281", "open": true, "categories": ["Ethiopian", "Restaurants"], "city": "Tempe", "review_count": 5, "name": "Juba", "neighborhoods": [], "longitude": -111.924806, "state": "AZ", "stars": 4.0, "latitude": 33.421349999999997, "type": "business"}
{"business_id": "1cCF9wHMJIaaQmj7wqRqMg", "full_address": "7051 E McDowell Rd\nScottsdale, AZ 85257", "open": true, "categories": ["Breakfast & Brunch", "American (New)", "Restaurants"], "city": "Scottsdale", "review_count": 3, "name": "The Nile Cafe", "neighborhoods": [], "longitude": -111.92929599999999, "state": "AZ", "stars": 4.0, "latitude": 33.465619799999999, "type": "business"}
{"business_id": "897iwFP_UrzB_om1uQhjxA", "full_address": "4341 North 24th St\nPhoenix, AZ 85016", "open": true, "categories": ["Home Services", "Real Estate", "Apartments"], "city": "Phoenix", "review_count": 3, "name": "Solaris At the Biltmore", "neighborhoods": [], "longitude": -112.0302118, "state": "AZ", "stars": 2.5, "latitude": 33.500781699999997, "type": "business"}
{"business_id": "qdbtpxgfYp0aBZdg4jEFIQ", "full_address": "20833 N Cave Creek Rd\nSte 101\nPhoenix, AZ 85024", "open": true, "categories": ["Hair Salons", "Nail Salons", "Hair Stylists", "Beauty & Spas"], "city": "Phoenix", "review_count": 5, "name": "101 Hair & Nails Salon", "neighborhoods": [], "longitude": -112.030592, "state": "AZ", "stars": 5.0, "latitude": 33.677424199999997, "type": "business"}
{"business_id": "Wly_dBQLTJp3UN9efYvKKQ", "full_address": "2401 S Wilson St\nTempe, AZ 85282", "open": true, "categories": ["Food", "Breweries"], "city": "Tempe", "review_count": 6, "name": "Four Peaks Brewery", "neighborhoods": [], "longitude": -111.94413299999999, "state": "AZ", "stars": 5.0, "latitude": 33.402504999999998, "type": "business"}
{"business_id": "r9CMsP7qLPd_MkYmpmZzLA", "full_address": "4355 W Bell Rd\nGlendale, AZ 85306", "open": true, "categories": ["Hair Salons", "Beauty & Spas"], "city": "Glendale", "review_count": 4, "name": "Nousha's Hair Design", "neighborhoods": [], "longitude": -112.1534466, "state": "AZ", "stars": 5.0, "latitude": 33.639206199999997, "type": "business"}
{"business_id": "aKiwoEMhxhBP1buu1Jrynw", "full_address": "14443 N 73rd St\nScottsdale, AZ 85260", "open": true, "categories": ["Auto Repair", "Automotive"], "city": "Scottsdale", "review_count": 3, "name": "Phoenix Dent Repair", "neighborhoods": [], "longitude": -111.92447780000001, "state": "AZ", "stars": 5.0, "latitude": 33.614945499999997, "type": "business"}
{"business_id": "Yi2_WbqDjeUrZn7WhdFA8w", "full_address": "10135 E Via Linda\nScottsdale, AZ 85258", "open": true, "categories": ["Bars", "Food", "French", "Specialty Food", "Wine Bars", "Nightlife", "Restaurants"], "city": "Scottsdale", "review_count": 8, "name": "Voila French Bistro and Wine Bar", "neighborhoods": [], "longitude": -111.8619499, "state": "AZ", "stars": 5.0, "latitude": 33.574739399999999, "type": "business"}
{"business_id": "iAe55bO88EwBiPL2GhwBew", "full_address": "15807 E Frank Lloyd Wright Blvd\nScottsdale, AZ 85260", "open": true, "categories": ["Fast Food", "Sandwiches", "Restaurants"], "city": "Scottsdale", "review_count": 5, "name": "Jersey Mike's Subs", "neighborhoods": [], "longitude": -111.8875115, "state": "AZ", "stars": 4.0, "latitude": 33.629769400000001, "type": "business"}
{"business_id": "cWMQYEsbKyPlZfj85ukCyA", "full_address": "1805 E SkyHarbor Cir S\nPhoenix, AZ 85034", "open": true, "categories": ["Hotels & Travel", "Car Rental"], "city": "Phoenix", "review_count": 9, "name": "Sixt Rent A Car", "neighborhoods": [], "longitude": -112.0429513, "state": "AZ", "stars": 3.0, "latitude": 33.432211299999999, "type": "business"}
{"business_id": "tyC0LaPJo3ct_0JEkTwZxw", "full_address": "3202 E Greenway Rd\nPhoenix, AZ 85032", "open": true, "categories": ["Mexican", "Restaurants"], "city": "Phoenix", "review_count": 4, "name": "Filiberto's Mexican Food", "neighborhoods": [], "longitude": -112.011376619339, "state": "AZ", "stars": 2.5, "latitude": 33.626595506200502, "type": "business"}
{"business_id": "gJmBto8IXwSBT4HTcL7cDw", "full_address": "2170 E Baseline Rd\nSte 134\nPhoenix, AZ 85042", "open": true, "categories": ["Restaurants", "Pizza", "Italian"], "city": "Phoenix", "review_count": 4, "name": "Sano Brick Pizza", "neighborhoods": [], "longitude": -112.03589270000001, "state": "AZ", "stars": 5.0, "latitude": 33.377836799999997, "type": "business"}
{"business_id": "cuLVubarNFQ7VjpT5k7DEQ", "full_address": "503 W Thomas Rd\nPhoenix, AZ 85013", "open": true, "categories": ["Sandwiches", "Vegan", "Restaurants"], "city": "Phoenix", "review_count": 3, "name": "D'Lish Cafe", "neighborhoods": [], "longitude": -112.0805886, "state": "AZ", "stars": 5.0, "latitude": 33.480315900000001, "type": "business"}
{"business_id": "5cdOl0IBh58CWW9lDGyJOw", "full_address": "13525 N Fountain Hills Blvd\nSte 101\nFountain Hills, AZ 85268", "open": true, "categories": ["Mexican", "Restaurants"], "city": "Fountain Hills", "review_count": 4, "name": "Senor Taco", "neighborhoods": [], "longitude": -111.730925, "state": "AZ", "stars": 4.0, "latitude": 33.606684000000001, "type": "business"}
{"business_id": "WYCOSLJ01bMUQXlBQlYSSw", "full_address": "4572-4642 N Goldwater Blvd\nScottsdale, AZ 85251", "open": true, "categories": ["Food", "Herbs & Spices", "Specialty Food"], "city": "Scottsdale", "review_count": 3, "name": "Pepper Palace", "neighborhoods": [], "longitude": -111.931327909323, "state": "AZ", "stars": 5.0, "latitude": 33.5039929890522, "type": "business"}
{"business_id": "bFYSlmpgG2z7v0AvRbqmlA", "full_address": "SanTan Village Mall\n2268 E Williams Field Rd, Bldg 7, Ste 108\nGilbert, AZ 85295", "open": true, "categories": ["Food", "Shaved Ice"], "city": "Gilbert", "review_count": 3, "name": "Kea Lani Shave Ice", "neighborhoods": [], "longitude": -111.71413421630901, "state": "AZ", "stars": 4.5, "latitude": 33.320774761945003, "type": "business"}
{"business_id": "ZNJCdBQ4YO8s8mGanIz11g", "full_address": "4505 E Cactus Rd\nPhoenix, AZ 85032", "open": true, "categories": ["American (Traditional)", "Sandwiches", "Restaurants"], "city": "Phoenix", "review_count": 5, "name": "Jersey Mike's Subs", "neighborhoods": [], "longitude": -111.98441200000001, "state": "AZ", "stars": 4.0, "latitude": 33.599291000000001, "type": "business"}
{"business_id": "8SvCSiGwtaGL2Z78tRSSlQ", "full_address": "1507 N Litchfield Rd\nSte 102\nGoodyear, AZ 85395", "open": true, "categories": ["Burgers", "Restaurants"], "city": "Goodyear", "review_count": 9, "name": "Five Guys Burgers and Fries", "neighborhoods": [], "longitude": -112.35773107300101, "state": "AZ", "stars": 3.5, "latitude": 33.463014021748002, "type": "business"}
{"business_id": "bDtXbXItjJSZ6oo3SnWKhw", "full_address": "828 N 2nd St\nPhoenix, AZ 85004", "open": true, "categories": ["Food", "Coffee & Tea"], "city": "Phoenix", "review_count": 6, "name": "8th Day Coffee & Culture", "neighborhoods": [], "longitude": -112.07126820000001, "state": "AZ", "stars": 4.5, "latitude": 33.457248900000003, "type": "business"}
{"business_id": "ujkFN6kSrXVzq3epVeWmzQ", "full_address": "4211 N Scottsdale Rd\nScottsdale, AZ 85251", "open": true, "categories": ["Books, Mags, Music & Video", "Vinyl Records", "Shopping"], "city": "Scottsdale", "review_count": 3, "name": "Record Room", "neighborhoods": [], "longitude": -111.92594149999999, "state": "AZ", "stars": 4.5, "latitude": 33.497276399999997, "type": "business"}
{"business_id": "RaI4NZfESHbCPu-7Vjv9rQ", "full_address": "2090 N Dobson Rd\nSte 4\nChandler, AZ 85224", "open": true, "categories": ["American (Traditional)", "Restaurants"], "city": "Chandler", "review_count": 9, "name": "Biscuits Cafe", "neighborhoods": [], "longitude": -111.876903, "state": "AZ", "stars": 4.0, "latitude": 33.337277999999998, "type": "business"}
{"business_id": "-E6XYf1ce1NCtV3QQI-3xA", "full_address": "1434 S Alma School Rd\nFiesta Mall\nMesa, AZ 85210", "open": true, "categories": ["Seafood", "Steakhouses", "Restaurants"], "city": "Mesa", "review_count": 5, "name": "Longhorn Steakhouse Mesa", "neighborhoods": [], "longitude": -111.844019, "state": "AZ", "stars": 4.0, "latitude": 33.389011000000004, "type": "business"}
{"business_id": "erHz0NkEG1AP3aAtnu3eFw", "full_address": "15257 N Scottsdale Rd\nScottsdale, AZ 85260", "open": true, "categories": ["Local Flavor"], "city": "Scottsdale", "review_count": 24, "name": "Elite Event - An Elite Taste of Tanzy", "neighborhoods": [], "longitude": -111.9255162, "state": "AZ", "stars": 5.0, "latitude": 33.6250517, "type": "business"}
{"business_id": "aTswScd3V3HU0IfGIEiMvw", "full_address": "12801 W Bell Rd\nSte 2A\nSurprise, AZ 85378", "open": true, "categories": ["Barbers", "Beauty & Spas"], "city": "Surprise", "review_count": 3, "name": "Crossroad Cutters", "neighborhoods": [], "longitude": -112.3331529, "state": "AZ", "stars": 5.0, "latitude": 33.638433599999999, "type": "business"}
{"business_id": "vxC3YTLOeGJwrnHcep63FQ", "full_address": "620 W Osborn Ave\nPhoenix, AZ 85013", "open": true, "categories": ["Buffets", "Restaurants"], "city": "Phoenix", "review_count": 6, "name": "Super Moon Buffet", "neighborhoods": [], "longitude": -112.08251660000001, "state": "AZ", "stars": 2.5, "latitude": 33.487593500000003, "type": "business"}
{"business_id": "pz-jypT4fEPQKr9RZtVdAw", "full_address": "7117 E 3rd Ave\nScottsdale, AZ 85251", "open": true, "categories": ["Pizza", "Sandwiches", "Restaurants"], "city": "Scottsdale", "review_count": 6, "name": "K.I.S.S. Back East Pizza and Beef Joint", "neighborhoods": [], "longitude": -111.927635, "state": "AZ", "stars": 4.5, "latitude": 33.495978000000001, "type": "business"}
{"business_id": "sdpBEhzeDedh7SVe_OMpGg", "full_address": "Phoenix, AZ", "open": true, "categories": ["Food", "Street Vendors", "Asian Fusion", "Hawaiian", "Restaurants"], "city": "Phoenix", "review_count": 5, "name": "Island Loco", "neighborhoods": [], "longitude": -112.0740373, "state": "AZ", "stars": 4.5, "latitude": 33.448377100000002, "type": "business"}
{"business_id": "0rbT0Nf-A56t4DnYIIvy-Q", "full_address": "3420 E Baseline Rd\nSte 107\nMesa, AZ 85204", "open": true, "categories": ["Soup", "Sandwiches", "Salad", "Restaurants"], "city": "Mesa", "review_count": 7, "name": "Cafe Zupas", "neighborhoods": [], "longitude": -111.75704500000001, "state": "AZ", "stars": 3.5, "latitude": 33.379618000000001, "type": "business"}
{"business_id": "dvQxsFICv2HFMmQX8yI55w", "full_address": "7448 W Glendale Ave\nGlendale, AZ 85303", "open": true, "categories": ["Thai", "Restaurants"], "city": "Glendale", "review_count": 6, "name": "Sala Thai", "neighborhoods": [], "longitude": -112.21800994873, "state": "AZ", "stars": 4.5, "latitude": 33.539028167724602, "type": "business"}
{"business_id": "Wjezpint3zxBBMGC-awQug", "full_address": "4426 N Saddlebag Trl\nScottsdale, AZ 85251", "open": true, "categories": ["Nightlife", "Dance Clubs"], "city": "Scottsdale", "review_count": 3, "name": "EPIQ", "neighborhoods": [], "longitude": -111.922313119897, "state": "AZ", "stars": 4.5, "latitude": 33.501628423792297, "type": "business"}
{"business_id": "G-_YjR1YrlkgIo2iavJoew", "full_address": "5350 W Bell Rd\nSte 124\nGlendale, AZ 85308", "open": true, "categories": ["Vietnamese", "Restaurants"], "city": "Glendale", "review_count": 15, "name": "Pho & Grill", "neighborhoods": [], "longitude": -112.1745837, "state": "AZ", "stars": 3.0, "latitude": 33.640142099999998, "type": "business"}
{"business_id": "NkGQRN6ahwQoFEAlHq8NHg", "full_address": "7000 E Mayo Blvd\nPhoenix, AZ 85054", "open": true, "categories": ["American (Traditional)", "Restaurants"], "city": "Phoenix", "review_count": 6, "name": "Blue 32 Sports Grill", "neighborhoods": [], "longitude": -111.9300279, "state": "AZ", "stars": 4.0, "latitude": 33.655684399999998, "type": "business"}
{"business_id": "setfRzkAcOPxKH5TZLTqJQ", "full_address": "3400 E Sky Harbor Blvd\nSte 3300\nPhoenix, AZ 85034", "open": true, "categories": ["American (Traditional)", "American (New)", "Restaurants"], "city": "Phoenix", "review_count": 9, "name": "Olive & Ivy", "neighborhoods": [], "longitude": -112.02615400000001, "state": "AZ", "stars": 3.5, "latitude": 33.439647999999998, "type": "business"}
{"business_id": "rluuxDPHiP9Z4qtNO66eTw", "full_address": "5045 N 44th St\nPhoenix, AZ 85018", "open": true, "categories": ["Breakfast & Brunch", "Restaurants"], "city": "Phoenix", "review_count": 3, "name": "Daily Bistro", "neighborhoods": [], "longitude": -111.98629579999999, "state": "AZ", "stars": 4.5, "latitude": 33.5111019, "type": "business"}
{"business_id": "wku7HTNh8KcHpH_sAqIX9A", "full_address": "6525 E Southern Ave\nMesa, AZ 85206", "open": true, "categories": ["Department Stores", "Fashion", "Shopping"], "city": "Mesa", "review_count": 4, "name": "Superstition Springs Mall", "neighborhoods": [], "longitude": -111.68975830078099, "state": "AZ", "stars": 4.0, "latitude": 33.3900337219238, "type": "business"}
{"business_id": "VSSO193ph86tmxDVaSDb3A", "full_address": "8909 E Indian Bend Rd\nScottsdale, AZ 85250", "open": true, "categories": ["Bars", "American (Traditional)", "Sports Bars", "Nightlife", "Chicken Wings", "Restaurants"], "city": "Scottsdale", "review_count": 7, "name": "Hooters", "neighborhoods": [], "longitude": -111.8894906, "state": "AZ", "stars": 3.0, "latitude": 33.538204899999997, "type": "business"}
{"business_id": "eO-o7FRjNEzcSEG8pakkzA", "full_address": "7337 E Shea Blvd\nSte 105\nScottsdale, AZ 85253", "open": true, "categories": ["Food", "American (New)", "Breweries", "Restaurants"], "city": "Scottsdale", "review_count": 32, "name": "Fate Brewing Company", "neighborhoods": [], "longitude": -111.92253112793, "state": "AZ", "stars": 4.5, "latitude": 33.581590093283403, "type": "business"}
{"business_id": "5W2s7_z9u15l1HcuoAHsfg", "full_address": "7116 E Mercer Ln\nScottsdale, AZ 85254", "open": true, "categories": ["Restaurants"], "city": "Scottsdale", "review_count": 5, "name": "Paprika Mediterranean Experience", "neighborhoods": [], "longitude": -111.927548, "state": "AZ", "stars": 4.0, "latitude": 33.585636000000001, "type": "business"}
{"business_id": "mKtHJOe1rtf-zGewKpAqrw", "full_address": "27 W Baseline Rd\nPhoenix, AZ 85041", "open": true, "categories": ["Local Services", "Appliances & Repair"], "city": "Phoenix", "review_count": 5, "name": "One Stop Appliance Repair", "neighborhoods": [], "longitude": -112.0742698, "state": "AZ", "stars": 1.0, "latitude": 33.377748699999998, "type": "business"}
{"business_id": "qC7dblcDknGQgjXrX4I2SQ", "full_address": "16050 N. 76th Street\nSte 205\nScottsdale, AZ 85260", "open": true, "categories": ["Local Services", "Mobile Phone Repair", "IT Services & Computer Repair", "Electronics Repair"], "city": "Scottsdale", "review_count": 4, "name": "iFixAZ", "neighborhoods": [], "longitude": -111.88791999999999, "state": "AZ", "stars": 5.0, "latitude": 33.601973000000001, "type": "business"}
{"business_id": "D-4CJpsKDji6TYHq5A6UYA", "full_address": "3940 S Alma School Rd\nSte 5\nChandler, AZ 85248", "open": true, "categories": ["Shopping", "Optometrists", "Health & Medical", "Eyewear & Opticians"], "city": "Chandler", "review_count": 5, "name": "Ocotillo Eyecare", "neighborhoods": [], "longitude": -111.8644958, "state": "AZ", "stars": 4.0, "latitude": 33.248280700000002, "type": "business"}
{"business_id": "vANCNdPMrB4niP_48_YP1A", "full_address": "851 W University Dr\nTempe, AZ 85281", "open": true, "categories": ["Beauty & Spas", "Hair Removal", "Nail Salons"], "city": "Tempe", "review_count": 5, "name": "AZ Tip & Toes Nails", "neighborhoods": [], "longitude": -111.9506569, "state": "AZ", "stars": 3.0, "latitude": 33.421891100000003, "type": "business"}
{"business_id": "e10J4FIeeMEntDLoPqgMgw", "full_address": "4858 E Baseline Rd\nSte 101\nMesa, AZ 85206", "open": true, "categories": ["Local Services", "Pest Control"], "city": "Mesa", "review_count": 4, "name": "Legacy Pest Control", "neighborhoods": [], "longitude": -111.728112, "state": "AZ", "stars": 3.0, "latitude": 33.381646000000003, "type": "business"}
{"business_id": "-7XuLxfYwZ9x72mEKXdv0A", "full_address": "5037 W Thomas Rd\nPhoenix, AZ 85035", "open": true, "categories": ["Chinese", "Restaurants"], "city": "Phoenix", "review_count": 7, "name": "Lin's Golden Chinese Restaurant", "neighborhoods": [], "longitude": -112.16771799999999, "state": "AZ", "stars": 4.5, "latitude": 33.48001, "type": "business"}
{"business_id": "msTidJ9Uah1t1DZ-kg0eMw", "full_address": "5110 E Warner Rd\nSte 201\nPhoenix, AZ 85044", "open": true, "categories": ["Health & Medical", "Chiropractors"], "city": "Phoenix", "review_count": 3, "name": "Tri-Core Chiropractic", "neighborhoods": [], "longitude": -111.976236, "state": "AZ", "stars": 5.0, "latitude": 33.334769999999999, "type": "business"}
{"business_id": "sFS2RWCXUqwSRVLMn5S6oA", "full_address": "2743 S Market St\nSte 111\nGilbert, AZ 85295", "open": true, "categories": ["Chinese", "Restaurants"], "city": "Gilbert", "review_count": 12, "name": "Chen's Chinese Bistro", "neighborhoods": [], "longitude": -111.74266192922001, "state": "AZ", "stars": 4.0, "latitude": 33.300398012922102, "type": "business"}
{"business_id": "j8EdmN5dN_hUZ5Y1wfDFdg", "full_address": "3507 W Dunlap Ave\nPhoenix, AZ 85051", "open": true, "categories": ["Buffets", "Restaurants"], "city": "Phoenix", "review_count": 4, "name": "Blue Pacific Super Buffet", "neighborhoods": [], "longitude": -112.1350865, "state": "AZ", "stars": 2.5, "latitude": 33.5674031, "type": "business"}
{"business_id": "KramfptRWKyQOm672d-w4Q", "full_address": "835 N Gilbert Rd\nGilbert, AZ 85234", "open": true, "categories": ["Greek", "Restaurants"], "city": "Gilbert", "review_count": 3, "name": "My Big Fat Greek Restaurant", "neighborhoods": [], "longitude": -111.7897936, "state": "AZ", "stars": 4.5, "latitude": 33.3661496, "type": "business"}
{"business_id": "ytKoF3d0XQGt5Va8ru0GMQ", "full_address": "1269 N Promenade Pkwy\nSte 121\nCasa Grande, AZ 85194", "open": true, "categories": ["Nightlife", "Bars", "American (New)", "Sports Bars", "Restaurants"], "city": "Casa Grande", "review_count": 5, "name": "Cactus Moon", "neighborhoods": [], "longitude": -111.68535596933, "state": "AZ", "stars": 2.0, "latitude": 32.8863499981695, "type": "business"}
{"business_id": "KWo4geULVPzCirc0Scpcow", "full_address": "3701-3965 Sky Harbor Blvd\nPhoenix, AZ 85034", "open": true, "categories": ["Bakeries", "Food", "French", "Restaurants"], "city": "Phoenix", "review_count": 4, "name": "La Madeleine", "neighborhoods": [], "longitude": -112.001445002113, "state": "AZ", "stars": 3.5, "latitude": 33.433677495519298, "type": "business"}
{"business_id": "qqWy0Q1KMkFfKp_veyRAfg", "full_address": "721 N Central Ave\nPhoenix, AZ 85004", "open": true, "categories": ["Local Flavor"], "city": "Phoenix", "review_count": 4, "name": "Phoestivus", "neighborhoods": [], "longitude": -112.07403979999999, "state": "AZ", "stars": 5.0, "latitude": 33.455695800000001, "type": "business"}
{"business_id": "_Ne4sL68IW6lEXYvrnkt-w", "full_address": "680 Mill Ave\nTempe, AZ 85281", "open": true, "categories": ["Food", "Beer, Wine & Spirits", "Bars", "Nightlife"], "city": "Tempe", "review_count": 41, "name": "The Handlebar Tempe", "neighborhoods": [], "longitude": -111.94028735160801, "state": "AZ", "stars": 3.5, "latitude": 33.423901989755002, "type": "business"}
{"business_id": "zyI8_HQPEwkJ22WMb9ILVQ", "full_address": "10220 W McDowell Rd\nAvondale, AZ 85392", "open": true, "categories": ["Burgers", "American (Traditional)", "Restaurants"], "city": "Avondale", "review_count": 4, "name": "JR's Burger Grill", "neighborhoods": [], "longitude": -112.279586791992, "state": "AZ", "stars": 3.5, "latitude": 33.466702806603799, "type": "business"}
{"business_id": "4Q4ugSPMpxhoRFiT2BdAKg", "full_address": "12 W Camelback Rd\nPhoenix, AZ 85013", "open": true, "categories": ["Arts & Entertainment", "Festivals", "Local Flavor"], "city": "Phoenix", "review_count": 4, "name": "Certified Local First Fall Festival", "neighborhoods": [], "longitude": -112.07454, "state": "AZ", "stars": 4.5, "latitude": 33.509284000000001, "type": "business"}
{"business_id": "_tWPlLKRenyHPvkxqZ2UQQ", "full_address": "18835 N Thompson Peak Pkwy\nScottsdale, AZ 85255", "open": true, "categories": ["Italian", "Pizza", "Restaurants"], "city": "Scottsdale", "review_count": 4, "name": "Ciao Grazie", "neighborhoods": [], "longitude": -111.866561889648, "state": "AZ", "stars": 5.0, "latitude": 33.656646728515597, "type": "business"}
{"business_id": "jKLR4wAywvVcGtQnCLzoRw", "full_address": "14 E Pierce St\nPhoenix, AZ 85004", "open": true, "categories": ["Food", "Seafood", "Street Vendors", "Restaurants"], "city": "Phoenix", "review_count": 6, "name": "The Maine Lobster Lady", "neighborhoods": [], "longitude": -112.073609232902, "state": "AZ", "stars": 4.5, "latitude": 33.455729333483397, "type": "business"}
{"business_id": "X6PFtUdbCIOrr0r5suKlRg", "full_address": "3131 S 48th St\nTempe, AZ 85282", "open": true, "categories": ["Chinese", "Restaurants"], "city": "Tempe", "review_count": 3, "name": "Big Wa Chinese", "neighborhoods": [], "longitude": -111.97826999999999, "state": "AZ", "stars": 4.0, "latitude": 33.406453200000001, "type": "business"}
{"business_id": "PsM_lRYZGvg1-e9fzecWPw", "full_address": "10330 N 90th St\nScottsdale, AZ 85258", "open": true, "categories": ["Shopping", "Home Decor", "Home & Garden"], "city": "Scottsdale", "review_count": 3, "name": "HomeGoods", "neighborhoods": [], "longitude": -111.888747541284, "state": "AZ", "stars": 4.5, "latitude": 33.579460159056701, "type": "business"}
{"business_id": "LcAamvosJu0bcPgEVF-9sQ", "full_address": "3172 E Camelback Rd\nPhoenix, AZ 85018", "open": true, "categories": ["Hair Salons", "Hair Stylists", "Beauty & Spas"], "city": "Phoenix", "review_count": 14, "name": "Drybar", "neighborhoods": [], "longitude": -112.0131927, "state": "AZ", "stars": 4.0, "latitude": 33.5107772, "type": "business"}
{"business_id": "_PqHNiYiAKzM0TYugQD2_Q", "full_address": "8911 N Central Ave\nSte 102\nPhoenix, AZ 85020", "open": true, "categories": ["Active Life", "Dance Studios", "Gyms", "Yoga", "Fitness & Instruction"], "city": "Phoenix", "review_count": 4, "name": "In The RA Fitness", "neighborhoods": [], "longitude": -112.07346, "state": "AZ", "stars": 5.0, "latitude": 33.566127999999999, "type": "business"}
{"business_id": "amIKbXtk8TCoySw_xBjFKg", "full_address": "2502 E Camelback Rd\nPhoenix, AZ 85016", "open": true, "categories": ["Shopping", "Food", "Gift Shops", "Specialty Food", "Flowers & Gifts", "Local Flavor"], "city": "Phoenix", "review_count": 19, "name": "UNION Biltmore", "neighborhoods": [], "longitude": -112.02720410000001, "state": "AZ", "stars": 4.5, "latitude": 33.510206799999999, "type": "business"}
{"business_id": "LjjcWJtE9RKdUMd25EsL5A", "full_address": "4460 E Main St\nSte 120\nMesa, AZ 85205", "open": true, "categories": ["Pets", "Pet Stores"], "city": "Mesa", "review_count": 4, "name": "Reef Monsters", "neighborhoods": [], "longitude": -111.7330654, "state": "AZ", "stars": 5.0, "latitude": 33.416505700000002, "type": "business"}
{"business_id": "qMLP5QVgpo5jDqA9H1W2Rg", "full_address": "1201 E Glendale Ave\nPhoenix, AZ 85020", "open": true, "categories": ["Food", "Coffee & Tea"], "city": "Phoenix", "review_count": 3, "name": "Dutch Bros Coffee", "neighborhoods": [], "longitude": -112.05591, "state": "AZ", "stars": 5.0, "latitude": 33.537970999999999, "type": "business"}
{"business_id": "qbRiu4CuCY-8ASbI5ESopg", "full_address": "1368 N Arizona Ave\nChandler, AZ 85225", "open": true, "categories": ["Soul Food", "Southern", "Restaurants"], "city": "Chandler", "review_count": 3, "name": "Betty Boo's International Cuisine", "neighborhoods": [], "longitude": -111.842494, "state": "AZ", "stars": 3.5, "latitude": 33.326976000000002, "type": "business"}
{"business_id": "M0qJweLJaNO2ikd8koYn4w", "full_address": "202 N Central Ave\nPhoenix, AZ 85004", "open": true, "categories": ["Vietnamese", "Asian Fusion", "French", "Restaurants"], "city": "Phoenix", "review_count": 8, "name": "Bonjour Vietnam", "neighborhoods": [], "longitude": -112.074198, "state": "AZ", "stars": 4.0, "latitude": 33.450611000000002, "type": "business"}
{"business_id": "hiXt1iC9nJh3--kz80zRtA", "full_address": "58 W Buffalo St\nChandler, AZ 85225", "open": true, "categories": ["Sushi Bars", "Japanese", "Restaurants"], "city": "Chandler", "review_count": 6, "name": "Eastwind Sushi And Grill", "neighborhoods": [], "longitude": -111.840548017449, "state": "AZ", "stars": 4.0, "latitude": 33.304295740784802, "type": "business"}
{"business_id": "OF7wkQXbhPLsM_otADEmeA", "full_address": "3925 E Camelback Rd\nPhoenix, AZ 85018", "open": true, "categories": ["Food", "Desserts"], "city": "Phoenix", "review_count": 7, "name": "Gigi's Cupcakes", "neighborhoods": [], "longitude": -111.99689669999999, "state": "AZ", "stars": 2.5, "latitude": 33.509803300000002, "type": "business"}
{"business_id": "c98IHTGRo6HlJuquYUmjdA", "full_address": "3820 E Main St\n#106\nMesa, AZ 85205", "open": true, "categories": ["Electronics", "Television Service Providers", "Shopping", "Home Services"], "city": "Mesa", "review_count": 3, "name": "Direct Communications LLC", "neighborhoods": [], "longitude": -111.7487048, "state": "AZ", "stars": 3.5, "latitude": 33.415735900000001, "type": "business"}
{"business_id": "i5DGJVZzax-J2P55w5mGiQ", "full_address": "3927 E Wethersfield Rd\nPhoenix, AZ 85032", "open": true, "categories": ["Pet Groomers", "Pet Services", "Pets"], "city": "Phoenix", "review_count": 3, "name": "Dog Gone It", "neighborhoods": [], "longitude": -111.997299, "state": "AZ", "stars": 5.0, "latitude": 33.597427000000003, "type": "business"}
{"business_id": "yggyuN3FV_NiQCKfvN-b-Q", "full_address": "2502 E Camelback Rd\nSte 148A\nPhoenix, AZ 85016", "open": true, "categories": ["Bars", "Mediterranean", "Wine Bars", "Nightlife", "Restaurants", "Sandwiches"], "city": "Phoenix", "review_count": 9, "name": "Trattoria Del Piero", "neighborhoods": [], "longitude": -112.02720410000001, "state": "AZ", "stars": 3.5, "latitude": 33.510206799999999, "type": "business"}
{"business_id": "tlex-h7TJ-b2X8cLCIfunQ", "full_address": "10227 N Metro Pkwy E\nPhoenix, AZ 85051", "open": true, "categories": ["Thai", "Restaurants"], "city": "Phoenix", "review_count": 3, "name": "Sa Bai Dee Thai Cuisine", "neighborhoods": [], "longitude": -112.12051391601599, "state": "AZ", "stars": 5.0, "latitude": 33.580360412597699, "type": "business"}
{"business_id": "B47dTeqasE9UnrdaWxeBuw", "full_address": "13853 N 19th Ave\nPhoenix, AZ 85023", "open": true, "categories": ["Sushi Bars", "Restaurants"], "city": "Phoenix", "review_count": 3, "name": "Atami Sushi", "neighborhoods": [], "longitude": -112.0993548, "state": "AZ", "stars": 3.5, "latitude": 33.612351699999998, "type": "business"}
{"business_id": "e5uF2NqcQG-W0ZbdbIi_LA", "full_address": "S Nobel\nMesa, AZ 85209", "open": true, "categories": ["Cheesesteaks", "Pizza", "Restaurants"], "city": "Mesa", "review_count": 6, "name": "Genos Pizza & Cheesesteak", "neighborhoods": [], "longitude": -111.619774103165, "state": "AZ", "stars": 3.0, "latitude": 33.377451632709999, "type": "business"}
{"business_id": "xzn8R1ytgrCLwSeH6AS8WA", "full_address": "14002 E Pony Ln\nGilbert, AZ 85296", "open": true, "categories": ["Active Life", "Horseback Riding"], "city": "Gilbert", "review_count": 3, "name": "S.T.A.R.S. of Horsemanship", "neighborhoods": [], "longitude": -111.78145960000001, "state": "AZ", "stars": 3.5, "latitude": 33.310026399999998, "type": "business"}
{"business_id": "LYcw5qaBPhfrXhdDLadU4A", "full_address": "556 W McDowell Rd\nPhoenix, AZ 85003", "open": true, "categories": ["Pizza", "Restaurants"], "city": "Phoenix", "review_count": 6, "name": "NYPD Pizza", "neighborhoods": [], "longitude": -112.0816281, "state": "AZ", "stars": 2.5, "latitude": 33.465825899999999, "type": "business"}
{"business_id": "MmafQlWPPu0qbA7_1ayHNg", "full_address": "Pecos Village\n1890 W Germann Rd\nChandler, AZ 85286", "open": true, "categories": ["Mexican", "Restaurants"], "city": "Chandler", "review_count": 12, "name": "Nando's Mexican Cafe", "neighborhoods": [], "longitude": -111.8750209, "state": "AZ", "stars": 3.5, "latitude": 33.2762581, "type": "business"}
{"business_id": "SusbeBODKBldIQdrmKFslQ", "full_address": "150 W Main St\nMesa, AZ 85201", "open": true, "categories": ["Food", "Breweries"], "city": "Mesa", "review_count": 5, "name": "Desert Eagle Brewing Company", "neighborhoods": [], "longitude": -111.83591389999999, "state": "AZ", "stars": 3.0, "latitude": 33.415305400000001, "type": "business"}
{"business_id": "1udzLbeQxmLTbOtgyVP0kQ", "full_address": "3015 E Thomas Rd\nSte 101\nPhoenix, AZ 85016", "open": true, "categories": ["Ethiopian", "Restaurants"], "city": "Phoenix", "review_count": 8, "name": "Gojo Ethiopian Restauran", "neighborhoods": [], "longitude": -112.016481, "state": "AZ", "stars": 5.0, "latitude": 33.479604999999999, "type": "business"}
{"business_id": "i6b8U1rKrH_3DE_AoODoeA", "full_address": "107 E Wickenburg Way\nWickenburg, AZ 85390", "open": true, "categories": ["Bars", "Steakhouses", "Nightlife", "Restaurants"], "city": "Wickenburg", "review_count": 4, "name": "The Wickenburg Feed Company Steakhouse and Grill", "neighborhoods": [], "longitude": -112.7296486, "state": "AZ", "stars": 3.5, "latitude": 33.968820700000002, "type": "business"}
{"business_id": "WX_gxQyiMrlS80sW0rlf9w", "full_address": "3426 E Bell Rd\nSte 23\nPhoenix, AZ 85032", "open": true, "categories": ["Active Life", "Martial Arts", "Fitness & Instruction"], "city": "Phoenix", "review_count": 3, "name": "Strong Heart Academy", "neighborhoods": [], "longitude": -112.007031, "state": "AZ", "stars": 5.0, "latitude": 33.641061999999998, "type": "business"}
{"business_id": "M99oA5-pXyqQCAPgiPMuxA", "full_address": "455 N Galvin Pkwy\nPhoenix, AZ 85008", "open": true, "categories": ["Active Life", "Zoos"], "city": "Phoenix", "review_count": 22, "name": "Zoo Lights", "neighborhoods": [], "longitude": -111.953305, "state": "AZ", "stars": 4.0, "latitude": 33.453876000000001, "type": "business"}
{"business_id": "Hj3iyldLJg4JcyelJPnQag", "full_address": "6900 E. Hwy 60\nGold Canyon, AZ 85118", "open": true, "categories": ["American (Traditional)", "Restaurants"], "city": "Gold Canyon", "review_count": 4, "name": "Aj Fairways Grill", "neighborhoods": [], "longitude": -111.46771819999999, "state": "AZ", "stars": 4.0, "latitude": 33.357996999999997, "type": "business"}
{"business_id": "ff9FIHbKAx80wgCKKwsESg", "full_address": "7051 E 5th Ave\nScottsdale, AZ 85251", "open": true, "categories": ["Local Flavor"], "city": "Scottsdale", "review_count": 5, "name": "Yelp Shops Local Holiday Shopping Crawl", "neighborhoods": [], "longitude": -111.92922299999999, "state": "AZ", "stars": 5.0, "latitude": 33.497568000000001, "type": "business"}
{"business_id": "OwNUmQ554eMdF6J3uWqtiw", "full_address": "7055 E Shea Blvd\nScottsdale, AZ 85254", "open": true, "categories": ["Food", "Donuts"], "city": "Scottsdale", "review_count": 7, "name": "Krispy Kreme Doughnuts", "neighborhoods": [], "longitude": -111.9289838, "state": "AZ", "stars": 3.0, "latitude": 33.582073600000001, "type": "business"}
{"business_id": "DttDhELFKdueDqFp45idHA", "full_address": "8190 W Union Hills Dr\nSte 155\nGlendale, AZ 85308", "open": true, "categories": ["Korean", "Sushi Bars", "Japanese", "Restaurants"], "city": "Glendale", "review_count": 15, "name": "Kiku Sushi", "neighborhoods": [], "longitude": -112.234788537025, "state": "AZ", "stars": 3.5, "latitude": 33.654329615024501, "type": "business"}
{"business_id": "guD6--j7BIeqcFW_IUFbgw", "full_address": "7001 E 1st Ave\nScottsdale, AZ 85251", "open": true, "categories": ["Mexican", "Restaurants"], "city": "Scottsdale", "review_count": 14, "name": "America's Taco Shop", "neighborhoods": [], "longitude": -111.930207, "state": "AZ", "stars": 4.0, "latitude": 33.493726000000002, "type": "business"}
{"business_id": "11NjTU-TnxoEJICfsJ44Rg", "full_address": "13516 N 59th Dr\nGlendale, AZ 85304", "open": true, "categories": ["Food", "Cajun/Creole", "Food Trucks", "Restaurants"], "city": "Glendale", "review_count": 5, "name": "Old Dixie's", "neighborhoods": [], "longitude": -112.186667, "state": "AZ", "stars": 5.0, "latitude": 33.605479000000003, "type": "business"}
{"business_id": "q_f1s7xYTGBMiYfehVW_aQ", "full_address": "15807 N Frank Lloyd Wright Blvd\nScottsdale, AZ 85260", "open": true, "categories": ["Local Services", "Dry Cleaning & Laundry"], "city": "Scottsdale", "review_count": 3, "name": "Tide Dry Cleaners", "neighborhoods": [], "longitude": -111.888450611187, "state": "AZ", "stars": 3.5, "latitude": 33.630276927592597, "type": "business"}
{"business_id": "lEUsYkm-IHF8_hJTAJDjHw", "full_address": "4910 E Ray Rd\nPhoenix, AZ 85044", "open": true, "categories": ["Bakeries", "Food"], "city": "Phoenix", "review_count": 13, "name": "Gigis Cupcakes", "neighborhoods": [], "longitude": -111.97731, "state": "AZ", "stars": 4.5, "latitude": 33.320338999999997, "type": "business"}
{"business_id": "hpU0X-WMDbET33ptcn-87g", "full_address": "9689 N Hayden Rd\nSte 37\nScottsdale, AZ 85258", "open": true, "categories": ["Skin Care", "Beauty & Spas"], "city": "Scottsdale", "review_count": 4, "name": "Anti-Aging By Olga", "neighborhoods": [], "longitude": -111.903702, "state": "AZ", "stars": 5.0, "latitude": 33.574618000000001, "type": "business"}
{"business_id": "Dy8d1vPTTutHUaqfI5-8Lg", "full_address": "3802 E Indian School Rd\nPhoenix, AZ 85018", "open": true, "categories": ["Active Life", "Yoga", "Fitness & Instruction"], "city": "Phoenix", "review_count": 13, "name": "The Madison Improvement Club", "neighborhoods": [], "longitude": -112.000054830225, "state": "AZ", "stars": 4.0, "latitude": 33.495452651413899, "type": "business"}
{"business_id": "98czkMomXdoEugMk0VnJxQ", "full_address": "1944 S Greenfield Rd\nMesa, AZ 85206", "open": true, "categories": ["Discount Store", "Shopping"], "city": "Mesa", "review_count": 3, "name": "Garden Ridge", "neighborhoods": [], "longitude": -111.741088867188, "state": "AZ", "stars": 3.0, "latitude": 33.380527496337898, "type": "business"}
{"business_id": "C0jG1BBgdCHrtYZVrhzUaA", "full_address": "78 N Cooper Rd\nSte 101\nGilbert, AZ 85233", "open": true, "categories": ["Delis", "Italian", "Sandwiches", "Restaurants"], "city": "Gilbert", "review_count": 3, "name": "Brooklyn Eddie's", "neighborhoods": [], "longitude": -111.8071527, "state": "AZ", "stars": 2.5, "latitude": 33.351308600000003, "type": "business"}
{"business_id": "j-VL1pxIxTCqjgDVOzwx1Q", "full_address": "16131 W Bell Rd\nSurprise, AZ 85374", "open": true, "categories": ["Tires", "Automotive"], "city": "Surprise", "review_count": 3, "name": "Discount Tire", "neighborhoods": [], "longitude": -112.40625679493, "state": "AZ", "stars": 3.5, "latitude": 33.638489664895502, "type": "business"}
{"business_id": "SsL60j4ut59-v-gjmM5PKQ", "full_address": "20511 N Hayden Rd\nScottsdale, AZ 85255", "open": true, "categories": ["American (New)", "Restaurants"], "city": "Scottsdale", "review_count": 27, "name": "The Grind", "neighborhoods": [], "longitude": -111.905096769333, "state": "AZ", "stars": 2.5, "latitude": 33.6721220785127, "type": "business"}
{"business_id": "bp_pR4yFDKGyJwQkrMFWQQ", "full_address": "15425 N Scottsdale Rd\nSte 110\nScottsdale, AZ 85254", "open": true, "categories": ["Beauty & Spas", "Nail Salons"], "city": "Scottsdale", "review_count": 8, "name": "The Nail Room, LLC", "neighborhoods": [], "longitude": -111.92459100000001, "state": "AZ", "stars": 5.0, "latitude": 33.626109, "type": "business"}
{"business_id": "LH-RvU4CoJIana0ZKbX88Q", "full_address": "3131 E Thunderbird Rd\nSte 9\nPhoenix, AZ 85032", "open": true, "categories": ["Fashion", "Shopping", "Sporting Goods", "Bikes", "Outdoor Gear", "Sports Wear"], "city": "Phoenix", "review_count": 3, "name": "Salvation Outdoor", "neighborhoods": [], "longitude": -112.013801, "state": "AZ", "stars": 5.0, "latitude": 33.609865999999997, "type": "business"}
{"business_id": "MGTBiJ8upecnlG2rftHn9g", "full_address": "6910 E. Chauncey Ln.\nSte 115\nPhoenix, AZ 85054", "open": true, "categories": ["Medical Centers", "Health & Medical", "Physical Therapy"], "city": "Phoenix", "review_count": 4, "name": "O'Brien Physical Therapy, PLLC", "neighborhoods": [], "longitude": -111.9317253, "state": "AZ", "stars": 5.0, "latitude": 33.651748300000001, "type": "business"}
{"business_id": "8XmJg-Uy9FtOqlDOaSJsZw", "full_address": "7150 E 5th Ave\nScottsdale, AZ 85251", "open": true, "categories": ["Food", "Ice Cream & Frozen Yogurt", "Coffee & Tea", "Juice Bars & Smoothies"], "city": "Scottsdale", "review_count": 3, "name": "Petersen's Old Fashion Ice Cream", "neighborhoods": [], "longitude": -111.92676396553, "state": "AZ", "stars": 4.5, "latitude": 33.498438393498098, "type": "business"}
{"business_id": "RBvQPI6xn2GmiAOnhirBUw", "full_address": "4327 N Scottsdale Rd\nScottsdale, AZ 85251", "open": true, "categories": ["Restaurants", "Italian"], "city": "Scottsdale", "review_count": 10, "name": "Franco's Italian Caff\u00e9", "neighborhoods": [], "longitude": -111.9259383, "state": "AZ", "stars": 4.5, "latitude": 33.499283200000001, "type": "business"}
{"business_id": "m2ayKGYCc44dpHWVt8Us6w", "full_address": "1900 N Scottsdale Rd\nTempe, AZ 85281", "open": true, "categories": ["Automotive", "Car Dealers"], "city": "Tempe", "review_count": 3, "name": "Beemer Haus", "neighborhoods": [], "longitude": -111.927112340927, "state": "AZ", "stars": 1.5, "latitude": 33.450179413700702, "type": "business"}
{"business_id": "OE7RmfGvpvSEv4g3xDKfSw", "full_address": "Phoenix Sky Harbor International Airport\n3800 E Sky Harbor Blvd\nPhoenix, AZ 85034", "open": true, "categories": ["Breakfast & Brunch", "American (Traditional)", "Restaurants"], "city": "Phoenix", "review_count": 17, "name": "Chelsea's Kitchen", "neighborhoods": [], "longitude": -111.99769735336299, "state": "AZ", "stars": 4.0, "latitude": 33.435595754587403, "type": "business"}
{"business_id": "KECPmpLZxwroxLeUy9TDoA", "full_address": "1841 S Greenfield Rd\nMesa, AZ 85206", "open": true, "categories": ["Food", "Burgers", "Fast Food", "Ice Cream & Frozen Yogurt", "Restaurants"], "city": "Mesa", "review_count": 5, "name": "Culver's", "neighborhoods": [], "longitude": -111.73885300000001, "state": "AZ", "stars": 3.0, "latitude": 33.381216999999999, "type": "business"}
{"business_id": "JXuWboUDgxZB9AYYz7_0Mg", "full_address": "7000 Mayo Blvd\nSte 1082\nPhoenix, AZ 85054", "open": true, "categories": ["Beauty & Spas", "Nail Salons"], "city": "Phoenix", "review_count": 5, "name": "All About Nails & Spa", "neighborhoods": [], "longitude": -111.932820081711, "state": "AZ", "stars": 4.5, "latitude": 33.658084867858598, "type": "business"}
{"business_id": "0AkoILvIy27Ss3UYxUGiHg", "full_address": "10227 N Metro Pkwy E\nPhoenix, AZ 85051", "open": true, "categories": ["Thai", "Laotian", "Restaurants"], "city": "Phoenix", "review_count": 3, "name": "Sabaidee Thai Cuisine", "neighborhoods": [], "longitude": -112.12051391601599, "state": "AZ", "stars": 4.5, "latitude": 33.580360412597699, "type": "business"}
{"business_id": "wUrTYqp9fHLJ8AR4lMxHGQ", "full_address": "Sky Harbor Blvd\nPhoenix, AZ 85034", "open": true, "categories": ["Mexican", "Restaurants"], "city": "Phoenix", "review_count": 10, "name": "Blanco Tacos And Tequilla", "neighborhoods": [], "longitude": -112.01142230000001, "state": "AZ", "stars": 4.0, "latitude": 33.437746500000003, "type": "business"}
{"business_id": "UUnawRMKzdtoYSOxfi1BRQ", "full_address": "600 W Galveston Street\nChandler, AZ 85225", "open": true, "categories": ["Food", "Grocery"], "city": "Chandler", "review_count": 3, "name": "Kwik Mart", "neighborhoods": [], "longitude": -111.8502884, "state": "AZ", "stars": 3.5, "latitude": 33.313374000000003, "type": "business"}
{"business_id": "n4kQBw7XX1tSJMPhM5SyAQ", "full_address": "6800 N 95th Ave\nGlendale, AZ 85305", "open": true, "categories": ["Shopping", "Outlet Stores"], "city": "Glendale", "review_count": 6, "name": "Tanger Outlets", "neighborhoods": [], "longitude": -112.2667095, "state": "AZ", "stars": 2.0, "latitude": 33.534195799999999, "type": "business"}
{"business_id": "lLC7pJSpnF9CDfL9Gbg-Sg", "full_address": "1235 S Power Rd\nMesa, AZ 85206", "open": true, "categories": ["Food", "Grocery"], "city": "Mesa", "review_count": 5, "name": "Winco Foods", "neighborhoods": [], "longitude": -111.683241238791, "state": "AZ", "stars": 3.5, "latitude": 33.393190513546699, "type": "business"}
{"business_id": "4_KQfG6h4BstcMDNRtnxdg", "full_address": "2121 W Guadalupe Rd\nMesa, AZ 85202", "open": true, "categories": ["Filipino", "Restaurants"], "city": "Mesa", "review_count": 7, "name": "Manila Sunrise Gourmet", "neighborhoods": [], "longitude": -111.8813011, "state": "AZ", "stars": 4.5, "latitude": 33.364001100000003, "type": "business"}
{"business_id": "ivqKDODdBL2xSQBSfbZ3Mg", "full_address": "15745 N Hayden Rd\nSte 116\nScottsdale, AZ 85260", "open": true, "categories": ["Hair Salons", "Beauty & Spas"], "city": "Scottsdale", "review_count": 8, "name": "Jennifer Andre Salon", "neighborhoods": [], "longitude": -111.8956517, "state": "AZ", "stars": 4.5, "latitude": 33.6272381, "type": "business"}
{"business_id": "_UrbZpgCq638dWrS0Vly2A", "full_address": "15801 N Frank Lloyd Wright Blvd\nScottsdale, AZ 85260", "open": true, "categories": ["Burgers", "Hot Dogs", "American (New)", "Restaurants"], "city": "Scottsdale", "review_count": 10, "name": "Smashburger", "neighborhoods": [], "longitude": -111.88740989999999, "state": "AZ", "stars": 3.5, "latitude": 33.629777500000003, "type": "business"}
{"business_id": "83da7v9gQsWJegTW52qnuw", "full_address": "50 W Jefferson St\nPhoenix, AZ 85003", "open": true, "categories": ["Bars", "American (New)", "Nightlife", "Restaurants"], "city": "Phoenix", "review_count": 10, "name": "Gypsy Bar", "neighborhoods": [], "longitude": -112.0745395, "state": "AZ", "stars": 2.5, "latitude": 33.447454200000003, "type": "business"}
{"business_id": "M2j4ncoX2xtAmry1yWqwPA", "full_address": "23029 N Cave Creek Road\nPhoenix, AZ 85024", "open": true, "categories": [], "city": "Phoenix", "review_count": 3, "name": "National Memorial Cemetery of Arizona", "neighborhoods": [], "longitude": -112.028066, "state": "AZ", "stars": 5.0, "latitude": 33.695701, "type": "business"}
{"business_id": "oJ-ZYuqe6vZsTa4EADuC-w", "full_address": "Laveen, AZ 85339", "open": true, "categories": ["Shopping", "Cosmetics & Beauty Supply", "Beauty & Spas"], "city": "Laveen", "review_count": 3, "name": "Stinkin' Cute Soap Company", "neighborhoods": [], "longitude": -112.168611, "state": "AZ", "stars": 5.0, "latitude": 33.362777999999999, "type": "business"}
{"business_id": "ez2kJbLFx8ad0zdPdJSA1Q", "full_address": "Peoria, AZ 85385", "open": true, "categories": ["Home Cleaning", "Home Services"], "city": "Peoria", "review_count": 3, "name": "ENVIROPRO Group", "neighborhoods": [], "longitude": -112.23, "state": "AZ", "stars": 1.5, "latitude": 33.609999999999999, "type": "business"}
{"business_id": "nC8xmUM98souIGyle7Tbuw", "full_address": "3549 E Brown Rd\nSte 102\nMesa, AZ 85213", "open": true, "categories": ["Pediatric Dentists", "Health & Medical", "Dentists"], "city": "Mesa", "review_count": 3, "name": "Amazing Kidz Pediatric Dentistry", "neighborhoods": [], "longitude": -111.75410100000001, "state": "AZ", "stars": 5.0, "latitude": 33.436866999999999, "type": "business"}
{"business_id": "2kZiyGqzB5Lnc0cZgHCOfw", "full_address": "10810 N Tatum Blvd\nSte 108\nPhoenix, AZ 85028", "open": true, "categories": ["Active Life", "Gyms", "Trainers", "Fitness & Instruction"], "city": "Phoenix", "review_count": 4, "name": "Orangetheory Fitness Paradise Valley", "neighborhoods": [], "longitude": -111.9788671, "state": "AZ", "stars": 5.0, "latitude": 33.583958099999997, "type": "business"}
{"business_id": "U5F3-Z44SZiqHjka3-kYnw", "full_address": "4290 E Indian School Rd\nSte 119\nPhoenix, AZ 85018", "open": true, "categories": ["Health & Medical", "Chiropractors"], "city": "Phoenix", "review_count": 4, "name": "The Joint ...The Chiropractic Place", "neighborhoods": [], "longitude": -111.9897424, "state": "AZ", "stars": 4.5, "latitude": 33.494961799999999, "type": "business"}
{"business_id": "c0eHRit6jUbuFwIZUZsuBQ", "full_address": "2610 W Baseline Rd\nSte 104\nPhoenix, AZ 85041", "open": true, "categories": ["Food", "Specialty Food"], "city": "Phoenix", "review_count": 3, "name": "The Dipping Well", "neighborhoods": [], "longitude": -112.11467620000001, "state": "AZ", "stars": 5.0, "latitude": 33.377766399999999, "type": "business"}
{"business_id": "ISHaYZ4DnLwzjHYW3922NA", "full_address": "1900 N McClintock Dr\nTempe, AZ 85281", "open": true, "categories": ["Auto Repair", "Automotive"], "city": "Tempe", "review_count": 3, "name": "AZ Auto Air", "neighborhoods": [], "longitude": -111.9094305, "state": "AZ", "stars": 5.0, "latitude": 33.449891700000002, "type": "business"}
{"business_id": "G90xX0E76dEIq51x4RxtVQ", "full_address": "1652 N Higley Rd\nSte 103\nGilbert, AZ 85234", "open": true, "categories": ["Restaurants", "Italian"], "city": "Gilbert", "review_count": 8, "name": "Zappone's Italian Bistro", "neighborhoods": [], "longitude": -111.724395, "state": "AZ", "stars": 4.0, "latitude": 33.380516, "type": "business"}
{"business_id": "Ft7BXN0D9x_XcVd-VZeLeA", "full_address": "10146 W Lake Pleasant Pkwy\nSte 1030\nPeoria, AZ 85382", "open": true, "categories": ["Buffets", "Chinese", "Restaurants"], "city": "Peoria", "review_count": 7, "name": "Oriental Buffet Grill & Sushi", "neighborhoods": [], "longitude": -112.2760155, "state": "AZ", "stars": 4.0, "latitude": 33.676161499999999, "type": "business"}
{"business_id": "2kpuXjCKYDZPePOIEFoCag", "full_address": "3936 E Chandler Blvd\nSte 235\nPhoenix, AZ 85048", "open": true, "categories": ["Hair Salons", "Beauty & Spas"], "city": "Phoenix", "review_count": 4, "name": "Parlour Hair Design", "neighborhoods": [], "longitude": -111.99901, "state": "AZ", "stars": 5.0, "latitude": 33.305639999999997, "type": "business"}
{"business_id": "pbVL3t783OyO701yK5W08g", "full_address": "1101 W University Dr\nTempe, AZ 85281", "open": true, "categories": ["Delis", "Italian", "Restaurants"], "city": "Tempe", "review_count": 6, "name": "Mama's Italian Deli", "neighborhoods": [], "longitude": -111.95432, "state": "AZ", "stars": 4.5, "latitude": 33.421729900000003, "type": "business"}
{"business_id": "D0WE1MX08WW-kXifDGifkA", "full_address": "4080 W Ray Rd\nChandler, AZ 85226", "open": true, "categories": ["Gastropubs", "Restaurants"], "city": "Chandler", "review_count": 7, "name": "Nosh Arizona", "neighborhoods": [], "longitude": -111.91181899999999, "state": "AZ", "stars": 4.5, "latitude": 33.322375999999998, "type": "business"}
{"business_id": "gDMkLebIURwPcor2FvuYOg", "full_address": "7555 N Pima Rd\nScottsdale, AZ 85258", "open": true, "categories": ["Active Life"], "city": "Scottsdale", "review_count": 4, "name": "Hot Chocolate 15/5K", "neighborhoods": [], "longitude": -111.8906861, "state": "AZ", "stars": 4.0, "latitude": 33.546608200000001, "type": "business"}
{"business_id": "uxzYF6A_PLVhIraINJfDbw", "full_address": "1674 N Higley Rd\nSte 104\nGilbert, AZ 85206", "open": true, "categories": ["Indian", "Buffets", "Restaurants"], "city": "Gilbert", "review_count": 5, "name": "India Gate", "neighborhoods": [], "longitude": -111.72416800000001, "state": "AZ", "stars": 2.0, "latitude": 33.381278999999999, "type": "business"}
{"business_id": "uE3ZCR5fvJK4AK99-VqkSA", "full_address": "2602 N 66th St\nScottsdale, AZ 85257", "open": true, "categories": ["Active Life", "Boot Camps", "Gyms", "Trainers", "Fitness & Instruction"], "city": "Scottsdale", "review_count": 3, "name": "Jwwfitness Workout Concepts", "neighborhoods": [], "longitude": -111.940944, "state": "AZ", "stars": 3.5, "latitude": 33.476987999999999, "type": "business"}
{"business_id": "LYVrlVAGp9JXFBB4m19PXg", "full_address": "404 S Mill Ave\nTempe, AZ 85281", "open": true, "categories": ["Professional Services", "Bankruptcy Law", "Lawyers", "Personal Injury Law", "General Litigation"], "city": "Tempe", "review_count": 9, "name": "Kelly / Warner, PLLC", "neighborhoods": [], "longitude": -111.94013699999999, "state": "AZ", "stars": 5.0, "latitude": 33.426350999999997, "type": "business"}
{"business_id": "9UrMG4cn2nfIQsJlH8e2PQ", "full_address": "8700 E Raintree Dr\nScottsdale, AZ 85260", "open": true, "categories": ["Thai", "Asian Fusion", "Chinese", "Restaurants"], "city": "Scottsdale", "review_count": 9, "name": "Pei Wei", "neighborhoods": [], "longitude": -111.89333260059399, "state": "AZ", "stars": 3.0, "latitude": 33.618465620783702, "type": "business"}
{"business_id": "f1cfs9BhhM-5ivTiR618UQ", "full_address": "5251 E Brown Rd\nSte 103\nMesa, AZ 85205", "open": true, "categories": ["Food", "Grocery"], "city": "Mesa", "review_count": 3, "name": "Dolce Vita Italian Grocer", "neighborhoods": [], "longitude": -111.7181791, "state": "AZ", "stars": 5.0, "latitude": 33.437333700000003, "type": "business"}
{"business_id": "NP78q8e3zdUSBOvbl527ZQ", "full_address": "16000 N Civic Center Plz\nSurprise, AZ 85374", "open": true, "categories": ["Cafes", "Restaurants"], "city": "Surprise", "review_count": 3, "name": "Fat Freddy's Cafe", "neighborhoods": [], "longitude": -112.3680195, "state": "AZ", "stars": 4.5, "latitude": 33.629617000000003, "type": "business"}